     2.11           OBSERVATION DATA    M (MIXED)           RINEX VERSION / TYPE
teqc  2008Feb15                         20090623 06:05:56UTCPGM / RUN BY / DATE
Pilar18                                                     MARKER NAME
0 Meter                                                     MARKER NUMBER
G.Giorgi/L.Huisman  DUT/CUT                                 OBSERVER / AGENCY
DAB07490108         GSR_2700_ISX        3.500               REC # / TYPE / VERS
0026                2700_ISX_Vert                           ANT # / TYPE
        0.0000        0.0000        0.0000                  APPROX POSITION XYZ
        0.0000        0.0000        0.0000                  ANTENNA: DELTA H/E/N
     1     1                                                WAVELENGTH FACT L1/2
     6    L1    L2    C1    P2    D1    D2                  # / TYPES OF OBSERV
     1.0000                                                 INTERVAL
--------------------------------                            COMMENT
Baseline Experiment June 16 2009                            COMMENT
Session 1                                                   COMMENT
  0.0 meter                                                 COMMENT
--------------------------------                            COMMENT
  2009     6    16     3    30   10.0000000     GPS         TIME OF FIRST OBS
Planning v4.11                          16-Jun-09 18:05     COMMENT
                                                            END OF HEADER
 09  6 16  3 30 10.0000000  0 9G16G30G10G21G31G24G29G12G18
 124500906.094    97013687.141    23691733.781    23691731.984        3408.590
      2656.043
 112334246.387    85701973.590    21551884.719    21551884.203       -2289.004
     -1783.645
 128183447.051    99883204.336    24392498.953    24392498.938       -1779.727
     -1386.809
 103423780.098    78758747.965    19856278.250    19856275.742         389.523
       303.520
 116519530.121    88963229.457    22348317.617    22348315.531       -1729.203
     -1347.434
 109235198.078    83287133.578    20962154.617    20962154.625       -1892.141
     -1474.398
 110050024.754    83922057.488    21117211.164    21117209.945        -913.691
      -711.969
 128627427.508   100229156.699    24476985.383    24476985.148       -3482.902
     -2713.961
 122440130.359    95407898.656    23299580.523    23299579.453        3494.441
      2722.941
  09  6 16  3 30 11.0000000  0 9G16G30G10G21G31G24G29G12G18
 124497497.715    97011031.258    23691085.195    23691083.398        3408.555
      2656.012
 112336535.613    85703757.402    21552320.336    21552319.828       -2289.215
     -1783.809
 128185227.152    99884591.414    24392837.688    24392837.727       -1779.953
     -1386.984
 103423390.805    78758444.617    19856204.172    19856201.656         389.227
       303.289
 116521259.484    88964577.008    22348646.703    22348644.625       -1729.352
     -1347.551
 109237090.484    83288608.176    20962514.727    20962514.734       -1892.496
     -1474.676
 110050938.602    83922769.578    21117385.070    21117383.852        -913.691
      -711.969
 128630910.316   100231870.555    24477648.133    24477647.836       -3482.742
     -2713.840
 122436636.055    95405175.816    23298915.578    23298914.492        3494.523
      2723.000
  09  6 16  3 30 12.0000000  0 9G16G30G10G21G31G24G29G12G18
 124494089.371    97008375.406    23690436.617    23690434.812        3408.402
      2655.895
 112338825.211    85705541.504    21552756.031    21552755.508       -2289.840
     -1784.293
 128187007.707    99885978.875    24393176.508    24393176.586       -1781.035
     -1387.824
 103423002.055    78758141.699    19856130.195    19856127.680         388.395
       302.641
 116522989.305    88965924.922    22348975.867    22348973.797       -1730.176
     -1348.191
 109238983.195    83290083.020    20962874.898    20962874.898       -1892.910
     -1475.000
 110051852.566    83923481.754    21117558.992    21117557.773        -914.195
      -712.363
 128634393.254   100234584.531    24478310.914    24478310.594       -3483.074
     -2714.074
 122433141.746    95402452.973    23298250.617    23298249.523        3494.355
      2722.871
 09  6 16  3 30 13.0000000  0 9G16G30G10G21G31G24G29G12G18
 124490681.277    97005719.754    23689788.078    23689786.289        3408.207
      2655.742
 112341115.371    85707326.043    21553191.828    21553191.320       -2290.168
     -1784.551
 128188788.824    99887366.762    24393515.445    24393515.492       -1781.223
     -1387.969
 103422614.039    78757839.348    19856056.352    19856053.844         387.867
       302.234
 116524719.734    88967273.309    22349305.148    22349303.094       -1730.484
     -1348.434
 109240876.434    83291558.266    20963235.164    20963235.164       -1893.273
     -1475.281
 110052766.824    83924194.164    21117732.969    21117731.758        -914.191
      -712.355
 128637876.453   100237298.730    24478973.742    24478973.406       -3483.145
     -2714.141
 122429647.684    95399730.336    23297585.719    23297584.617        3494.129
      2722.699
 09  6 16  3 30 14.0000000  0 9G16G30G10G21G31G24G29G12G18
 124487273.242    97003064.133    23689139.555    23689137.750        3407.785
      2655.414
 112343405.926    85709110.895    21553627.703    21553627.195       -2290.797
     -1785.039
 128190570.398    99888755.004    24393854.469    24393854.531       -1781.922
     -1388.516
 103422226.562    78757537.418    19855982.625    19855980.102         387.207
       301.719
 116526450.629    88968622.059    22349634.516    22349632.469       -1731.199
     -1348.992
 109242769.988    83293033.766    20963595.500    20963595.492       -1893.660
     -1475.582
 110053681.219    83924906.684    21117906.977    21117905.758        -914.602
      -712.680
 128641359.840   100240013.059    24479636.586    24479636.266       -3483.723
     -2714.594
 122426153.637    95397007.711    23296920.820    23296919.695        3494.082
      2722.660
 09  6 16  3 30 15.0000000  0 9G16G30G10G21G31G24G29G12G18
 124483865.305    97000408.605    23688491.039    23688489.266        3408.176
      2655.723
 112345696.922    85710896.086    21554063.664    21554063.141       -2291.070
     -1785.254
 128192352.430    99890143.598    24394193.570    24394193.664       -1782.270
     -1388.785
 103421839.695    78757235.965    19855909.008    19855906.484         386.785
       301.391
 116528182.023    88969971.191    22349963.977    22349961.938       -1731.449
     -1349.184
 109244663.934    83294509.570    20963955.906    20963955.891       -1893.918
     -1475.785
 110054595.797    83925619.340    21118081.023    21118079.797        -914.578
      -712.660
 128644843.363   100242727.492    24480299.484    24480299.172       -3483.203
     -2714.188
 122422659.695    95394285.164    23296255.945    23296254.820        3494.023
      2722.617
 09  6 16  3 30 16.0000000  0 9G16G30G10G21G31G24G29G12G18
 124480457.398    96997753.102    23687842.531    23687840.758        3407.887
      2655.496
 112347988.262    85712681.547    21554499.688    21554499.164       -2291.453
     -1785.551
 128194134.863    99891532.520    24394532.750    24394532.859       -1782.668
     -1389.094
 103421453.348    78756934.918    19855835.484    19855832.961         386.180
       300.918
 116529913.824    88971320.645    22350293.516    22350291.477       -1731.941
     -1349.570
 109246558.180    83295985.605    20964316.375    20964316.352       -1894.324
     -1476.102
 110055510.441    83926332.047    21118255.070    21118253.852        -914.527
      -712.621
 128648326.977   100245442.008    24480962.398    24480962.141       -3483.266
     -2714.234
 122419165.738    95391562.605    23295591.055    23295589.930        3494.039
      2722.629
  09  6 16  3 30 17.0000000  0 9G16G30G10G21G31G24G29G12G18
 124477049.602    96995097.680    23687194.055    23687192.281        3407.941
      2655.539
 112350280.039    85714467.344    21554935.797    21554935.266       -2291.770
     -1785.797
 128195917.781    99892921.805    24394872.039    24394872.133       -1782.801
     -1389.195
 103421067.602    78756634.336    19855762.078    19855759.555         385.645
       300.504
 116531646.133    88972670.496    22350623.156    22350621.117       -1732.324
     -1349.867
 109248452.801    83297461.938    20964676.906    20964676.883       -1894.516
     -1476.246
 110056425.277    83927044.906    21118429.156    21118427.945        -914.777
      -712.816
 128651810.793   100248156.648    24481625.352    24481625.109       -3483.484
     -2714.410
 122415671.871    95388840.117    23294926.188    23294925.070        3493.992
      2722.594
 09  6 16  3 30 18.0000000  0 9G16G30G10G21G31G24G29G12G18
 124473641.906    96992442.340    23686545.586    23686543.781        3407.562
      2655.242
 112352572.254    85716253.484    21555371.992    21555371.469       -2292.457
     -1786.336
 128197701.184    99894311.469    24395211.422    24395211.461       -1783.617
     -1389.832
 103420682.453    78756334.223    19855688.789    19855686.266         384.855
       299.887
 116533378.934    88974020.734    22350952.898    22350950.852       -1733.043
     -1350.426
 109250347.805    83298938.562    20965037.516    20965037.484       -1895.246
     -1476.820
 110057340.297    83927757.906    21118603.281    21118602.070        -915.090
      -713.062
 128655294.770   100250871.426    24482288.344    24482288.133       -3483.949
     -2714.773
 122412178.086    95386117.695    23294261.344    23294260.195        3493.891
      2722.512
 09  6 16  3 30 19.0000000  0 9G16G30G10G21G31G24G29G12G18
 124470234.355    96989787.105    23685897.141    23685895.383        3407.473
      2655.172
 112354864.941    85718039.996    21555808.273    21555807.750       -2292.977
     -1786.738
 128199485.086    99895701.523    24395550.898    24395550.906       -1784.164
     -1390.258
 103420297.953    78756034.609    19855615.625    19855613.094         384.047
       299.254
 116535112.277    88975371.391    22351282.734    22351280.672       -1733.699
     -1350.938
 109252243.227    83300415.516    20965398.211    20965398.156       -1895.672
     -1477.152
 110058255.527    83928471.070    21118777.445    21118776.227        -915.402
      -713.305
 128658778.941   100253586.363    24482951.367    24482951.211       -3484.191
     -2714.957
 122408684.434    95383395.359    23293596.523    23293595.336        3493.598
      2722.285
